curl "http://localhost:8080/otp/routers/default/plan?fromPlace=36.705215,137.216019&toPlace=36.693295,137.211227&mode=BICYCLE_RENT&date=20250717&time=0930&timeZone=Asia/Tokyo"
{"requestParameters":{"mode":"BICYCLE_RENT","date":"20250717","fromPlace":"36.705215,137.216019","timeZone":"Asia/Tokyo","toPlace":"36.693295,137.211227","time":"0930"},"plan":{"date":1752678930000,"from":{"name":"Origin","lon":137.216019,"lat":36.705215,"vertexType":"NORMAL"},"to":{"name":"Destination","lon":137.211227,"lat":36.693295,"vertexType":"NORMAL"},"itineraries":[{"duration":958,"startTime":1752678930000,"endTime":1752679888000,"walkTime":958,"transitTime":0,"waitingTime":0,"walkDistance":1667.5,"walkLimitExceeded":false,"generalizedCost":2482,"elevationLost":0.0,"elevationGained":0.0,"transfers":0,"fare":{"fare":{},"details":{}},"legs":[{"startTime":1752678930000,"endTime":1752678990000,"departureDelay":0,"arrivalDelay":0,"realTime":false,"distance":0.0,"generalizedCost":122,"pathway":false,"mode":"WALK","transitLeg":false,"route":"","agencyTimeZoneOffset":32400000,"interlineWithPreviousLeg":false,"from":{"name":"Origin","lon":137.216019,"lat":36.705215,"departure":1752678930000,"vertexType":"NORMAL"},"to":{"name":"環水公園 東","lon":137.216019,"lat":36.705215,"arrival":1752678990000,"departure":1752678990000,"vertexType":"BIKESHARE","bikeShareId":"10001","networks":["gbfs_own"]},"legGeometry":{"points":"","length":0},"legElevation":"","steps":[],"rentedBike":false,"walkingBike":false,"duration":60.0},{"startTime":1752678990000,"endTime":1752679888000,"departureDelay":0,"arrivalDelay":0,"realTime":false,"distance":1667.5,"generalizedCost":2358,"pathway":false,"mode":"BICYCLE","transitLeg":false,"route":"","agencyTimeZoneOffset":32400000,"interlineWithPreviousLeg":false,"from":{"name":"環水公園 東","lon":137.216019,"lat":36.705215,"arrival":1752678990000,"departure":1752678990000,"vertexType":"BIKESHARE","bikeShareId":"10001","networks":["gbfs_own"]},"to":{"name":"城址公園東","lon":137.211227,"lat":36.693295,"arrival":1752679888000,"departure":1752679888000,"vertexType":"BIKESHARE","bikeShareId":"10009","networks":["gbfs_own"]},"legGeometry":{"points":"}~__Fc~ndYbAd@FDK^HDn@ZD@hAj@TJHBDBHDtBbAFBfCnANHLNELJPVr@fAd@rCzAz@b@^Tx@MV{@HDL[?AJYDDB@DBDDDBNHHDF?hCKZAn@ExCKd@Ab@@H?t@BR?~@FbBJR@b@BfCJpBJTBFZBRL@@?b@BJ@TXDPl@?z@A@XEJDl@Fn@Hp@CD?J@JFb@D^HAHHHBL?NBDBD@BB@NNEASKE@[IA","length":88},"steps":[{"distance":40.77,"relativeDirection":"DEPART","streetName":"sidewalk","absoluteDirection":"SOUTHWEST","stayOn":false,"area":false,"bogusName":true,"lon":137.2158673,"lat":36.7052718,"elevation":"","walkingBike":true},{"distance":5.23,"relativeDirection":"CONTINUE","streetName":"path","absoluteDirection":"SOUTHWEST","stayOn":false,"area":false,"bogusName":true,"lon":137.2156739,"lat":36.7049395,"elevation":"","walkingBike":false},{"distance":15.61,"relativeDirection":"RIGHT","streetName":"road","absoluteDirection":"NORTHWEST","stayOn":true,"area":false,"bogusName":true,"lon":137.2156491,"lat":36.7048969,"elevation":"","walkingBike":false},{"distance":284.9,"relativeDirection":"LEFT","streetName":"富山駅北線","absoluteDirection":"SOUTHWEST","stayOn":true,"area":false,"bogusName":true,"lon":137.2154888,"lat":36.7049534,"elevation":"","walkingBike":false},{"distance":9.81,"relativeDirection":"CONTINUE","streetName":"road","absoluteDirection":"SOUTHWEST","stayOn":false,"area":false,"bogusName":true,"lon":137.21414,"lat":36.7026309,"elevation":"","walkingBike":true},{"distance":7.99,"relativeDirection":"RIGHT","streetName":"path","absoluteDirection":"NORTHWEST","stayOn":false,"area":false,"bogusName":true,"lon":137.2140693,"lat":36.7025633,"elevation":"","walkingBike":false},{"distance":37.34,"relativeDirection":"LEFT","streetName":"sidewalk","absoluteDirection":"SOUTHWEST","stayOn":false,"area":false,"bogusName":true,"lon":137.2139914,"lat":36.7025988,"elevation":"","walkingBike":true},{"distance":224.95,"relativeDirection":"SLIGHTLY_LEFT","streetName":"path","absoluteDirection":"SOUTH","stayOn":false,"area":false,"bogusName":true,"lon":137.2136411,"lat":36.7024176,"elevation":"","walkingBike":false},{"distance":30.44,"relativeDirection":"LEFT","streetName":"sidewalk","absoluteDirection":"SOUTHEAST","stayOn":false,"area":false,"bogusName":true,"lon":137.2127706,"lat":36.7005692,"elevation":"","walkingBike":true},{"distance":6.41,"relativeDirection":"RIGHT","streetName":"path","absoluteDirection":"SOUTHWEST","stayOn":false,"area":false,"bogusName":true,"lon":137.2130745,"lat":36.7004445,"elevation":"","walkingBike":false},{"distance":15.89,"relativeDirection":"LEFT","streetName":"road","absoluteDirection":"SOUTHEAST","stayOn":true,"area":false,"bogusName":true,"lon":137.2130408,"lat":36.7003936,"elevation":"","walkingBike":false},{"distance":12.83,"relativeDirection":"CONTINUE","streetName":"Toyama Station Line","absoluteDirection":"SOUTHEAST","stayOn":false,"area":false,"bogusName":false,"lon":137.2131978,"lat":36.7003266,"elevation":"","walkingBike":false},{"distance":605.99,"relativeDirection":"RIGHT","streetName":"城址大通り","absoluteDirection":"SOUTHWEST","stayOn":false,"area":false,"bogusName":false,"lon":137.2133206,"lat":36.7002665,"elevation":"","walkingBike":false},{"distance":23.09,"relativeDirection":"RIGHT","streetName":"road","absoluteDirection":"WEST","stayOn":false,"area":false,"bogusName":true,"lon":137.2130094,"lat":36.6948689,"elevation":"","walkingBike":false},{"distance":35.52,"relativeDirection":"LEFT","streetName":"path","absoluteDirection":"SOUTH","stayOn":true,"area":false,"bogusName":true,"lon":137.2127624,"lat":36.694807,"elevation":"","walkingBike":false},{"distance":310.81,"relativeDirection":"SLIGHTLY_RIGHT","streetName":"path","absoluteDirection":"SOUTHWEST","stayOn":true,"area":false,"bogusName":true,"lon":137.212729,"lat":36.6944887,"elevation":"","walkingBike":false}],"rentedBike":true,"walkingBike":false,"duration":898.0},{"startTime":1752679888000,"endTime":1752679888000,"departureDelay":0,"arrivalDelay":0,"realTime":false,"distance":0.0,"generalizedCost":2,"pathway":false,"mode":"WALK","transitLeg":false,"route":"","agencyTimeZoneOffset":32400000,"interlineWithPreviousLeg":false,"from":{"name":"城址公園東","lon":137.211227,"lat":36.693295,"arrival":1752679888000,"departure":1752679888000,"vertexType":"BIKESHARE","bikeShareId":"10009","networks":["gbfs_own"]},"to":{"name":"Destination","lon":137.211227,"lat":36.693295,"arrival":1752679888000,"vertexType":"NORMAL"},"legGeometry":{"points":"","length":0},"legElevation":"","steps":[],"rentedBike":false,"walkingBike":false,"duration":0.0}],"tooSloped":false,"arrivedAtDestinationWithRentedBicycle":false}]},"debugOutput":{"precalculationTime":115338,"directStreetRouterTime":8270049,"transitRouterTime":2310037,"filteringTime":282170,"renderingTime":956297,"totalTime":12038105,"transitRouterTimes":{"tripPatternFilterTime":0,"accessEgressTime":0,"raptorSearchTime":0,"itineraryCreationTime":0}},"elevationMetadata":{"ellipsoidToGeoidDifference":39.03399172758258,"geoidElevation":false}}